{
"type": "FeatureCollection",
                                                                                
"features": [
{ "type": "Feature", "id": 0, "properties": { "ID_0": 163, "ISO": "NGA", "NAME_0": "Nigeria", "ID_1": 1, "NAME_1": "Abia", "TYPE_1": "State", "ENGTYPE_1": "State", "NL_NAME_1": "", "VARNAME_1": "" }, "geometry": { "type": "Point", "coordinates": [ 7.509135766388907, 5.451793684781704 ] } }
,
{ "type": "Feature", "id": 1, "properties": { "ID_0": 163, "ISO": "NGA", "NAME_0": "Nigeria", "ID_1": 2, "NAME_1": "Adamawa", "TYPE_1": "State", "ENGTYPE_1": "State", "NL_NAME_1": "", "VARNAME_1": "" }, "geometry": { "type": "Point", "coordinates": [ 12.444612745143328, 9.344003181464618 ] } }
,
{ "type": "Feature", "id": 2, "properties": { "ID_0": 163, "ISO": "NGA", "NAME_0": "Nigeria", "ID_1": 3, "NAME_1": "Akwa Ibom", "TYPE_1": "State", "ENGTYPE_1": "State", "NL_NAME_1": "", "VARNAME_1": "" }, "geometry": { "type": "Point", "coordinates": [ 7.838176699323152, 4.912295098810143 ] } }
,
{ "type": "Feature", "id": 3, "properties": { "ID_0": 163, "ISO": "NGA", "NAME_0": "Nigeria", "ID_1": 4, "NAME_1": "Anambra", "TYPE_1": "State", "ENGTYPE_1": "State", "NL_NAME_1": "", "VARNAME_1": "" }, "geometry": { "type": "Point", "coordinates": [ 6.930591543516774, 6.208220957890362 ] } }
,
{ "type": "Feature", "id": 4, "properties": { "ID_0": 163, "ISO": "NGA", "NAME_0": "Nigeria", "ID_1": 5, "NAME_1": "Bauchi", "TYPE_1": "State", "ENGTYPE_1": "State", "NL_NAME_1": "", "VARNAME_1": "" }, "geometry": { "type": "Point", "coordinates": [ 9.746268800768803, 10.439333108546146 ] } }
,
{ "type": "Feature", "id": 5, "properties": { "ID_0": 163, "ISO": "NGA", "NAME_0": "Nigeria", "ID_1": 6, "NAME_1": "Bayelsa", "TYPE_1": "State", "ENGTYPE_1": "State", "NL_NAME_1": "", "VARNAME_1": "" }, "geometry": { "type": "Point", "coordinates": [ 6.105268248681996, 4.767812970264091 ] } }
,
{ "type": "Feature", "id": 6, "properties": { "ID_0": 163, "ISO": "NGA", "NAME_0": "Nigeria", "ID_1": 7, "NAME_1": "Benue", "TYPE_1": "State", "ENGTYPE_1": "State", "NL_NAME_1": "", "VARNAME_1": "" }, "geometry": { "type": "Point", "coordinates": [ 8.758107693790368, 7.324381316105764 ] } }
,
{ "type": "Feature", "id": 7, "properties": { "ID_0": 163, "ISO": "NGA", "NAME_0": "Nigeria", "ID_1": 8, "NAME_1": "Borno", "TYPE_1": "State", "ENGTYPE_1": "State", "NL_NAME_1": "", "VARNAME_1": "" }, "geometry": { "type": "Point", "coordinates": [ 13.126822442513363, 11.797337890791701 ] } }
,
{ "type": "Feature", "id": 8, "properties": { "ID_0": 163, "ISO": "NGA", "NAME_0": "Nigeria", "ID_1": 9, "NAME_1": "Cross River", "TYPE_1": "State", "ENGTYPE_1": "State", "NL_NAME_1": "", "VARNAME_1": "" }, "geometry": { "type": "Point", "coordinates": [ 8.5813005140781, 5.856440859359819 ] } }
,
{ "type": "Feature", "id": 9, "properties": { "ID_0": 163, "ISO": "NGA", "NAME_0": "Nigeria", "ID_1": 10, "NAME_1": "Delta", "TYPE_1": "State", "ENGTYPE_1": "State", "NL_NAME_1": "", "VARNAME_1": "" }, "geometry": { "type": "Point", "coordinates": [ 6.062382493415452, 5.537384449362941 ] } }
,
{ "type": "Feature", "id": 10, "properties": { "ID_0": 163, "ISO": "NGA", "NAME_0": "Nigeria", "ID_1": 11, "NAME_1": "Ebonyi", "TYPE_1": "State", "ENGTYPE_1": "State", "NL_NAME_1": "", "VARNAME_1": "" }, "geometry": { "type": "Point", "coordinates": [ 8.002217203796125, 6.265299302956315 ] } }
,
{ "type": "Feature", "id": 11, "properties": { "ID_0": 163, "ISO": "NGA", "NAME_0": "Nigeria", "ID_1": 12, "NAME_1": "Edo", "TYPE_1": "State", "ENGTYPE_1": "State", "NL_NAME_1": "", "VARNAME_1": "" }, "geometry": { "type": "Point", "coordinates": [ 5.904809714466932, 6.624212401081951 ] } }
,
{ "type": "Feature", "id": 12, "properties": { "ID_0": 163, "ISO": "NGA", "NAME_0": "Nigeria", "ID_1": 13, "NAME_1": "Ekiti", "TYPE_1": "State", "ENGTYPE_1": "State", "NL_NAME_1": "", "VARNAME_1": "" }, "geometry": { "type": "Point", "coordinates": [ 5.313143041810453, 7.702917743977775 ] } }
,
{ "type": "Feature", "id": 13, "properties": { "ID_0": 163, "ISO": "NGA", "NAME_0": "Nigeria", "ID_1": 14, "NAME_1": "Enugu", "TYPE_1": "State", "ENGTYPE_1": "State", "NL_NAME_1": "", "VARNAME_1": "" }, "geometry": { "type": "Point", "coordinates": [ 7.421035139362747, 6.534149086259272 ] } }
,
{ "type": "Feature", "id": 14, "properties": { "ID_0": 163, "ISO": "NGA", "NAME_0": "Nigeria", "ID_1": 15, "NAME_1": "Federal Capital Territory", "TYPE_1": "State", "ENGTYPE_1": "State", "NL_NAME_1": "", "VARNAME_1": "Abuja" }, "geometry": { "type": "Point", "coordinates": [ 7.141681954664366, 8.861415756744361 ] } }
,
{ "type": "Feature", "id": 15, "properties": { "ID_0": 163, "ISO": "NGA", "NAME_0": "Nigeria", "ID_1": 16, "NAME_1": "Gombe", "TYPE_1": "State", "ENGTYPE_1": "State", "NL_NAME_1": "", "VARNAME_1": "" }, "geometry": { "type": "Point", "coordinates": [ 11.244600272868711, 10.405373128915125 ] } }
,
{ "type": "Feature", "id": 16, "properties": { "ID_0": 163, "ISO": "NGA", "NAME_0": "Nigeria", "ID_1": 17, "NAME_1": "Imo", "TYPE_1": "State", "ENGTYPE_1": "State", "NL_NAME_1": "", "VARNAME_1": "" }, "geometry": { "type": "Point", "coordinates": [ 7.046854335892343, 5.550265142196042 ] } }
,
{ "type": "Feature", "id": 17, "properties": { "ID_0": 163, "ISO": "NGA", "NAME_0": "Nigeria", "ID_1": 18, "NAME_1": "Jigawa", "TYPE_1": "State", "ENGTYPE_1": "State", "NL_NAME_1": "", "VARNAME_1": "" }, "geometry": { "type": "Point", "coordinates": [ 9.550489077437931, 12.216098402090848 ] } }
,
{ "type": "Feature", "id": 18, "properties": { "ID_0": 163, "ISO": "NGA", "NAME_0": "Nigeria", "ID_1": 19, "NAME_1": "Kaduna", "TYPE_1": "State", "ENGTYPE_1": "State", "NL_NAME_1": "", "VARNAME_1": "" }, "geometry": { "type": "Point", "coordinates": [ 7.706192108293331, 10.355476188621985 ] } }
,
{ "type": "Feature", "id": 19, "properties": { "ID_0": 163, "ISO": "NGA", "NAME_0": "Nigeria", "ID_1": 20, "NAME_1": "Kano", "TYPE_1": "State", "ENGTYPE_1": "State", "NL_NAME_1": "", "VARNAME_1": "" }, "geometry": { "type": "Point", "coordinates": [ 8.513338297990558, 11.736130178604846 ] } }
,
{ "type": "Feature", "id": 20, "properties": { "ID_0": 163, "ISO": "NGA", "NAME_0": "Nigeria", "ID_1": 21, "NAME_1": "Katsina", "TYPE_1": "State", "ENGTYPE_1": "State", "NL_NAME_1": "", "VARNAME_1": "" }, "geometry": { "type": "Point", "coordinates": [ 7.630834127187225, 12.372580245989839 ] } }
,
{ "type": "Feature", "id": 21, "properties": { "ID_0": 163, "ISO": "NGA", "NAME_0": "Nigeria", "ID_1": 22, "NAME_1": "Kebbi", "TYPE_1": "State", "ENGTYPE_1": "State", "NL_NAME_1": "", "VARNAME_1": "" }, "geometry": { "type": "Point", "coordinates": [ 4.245111249752544, 11.698979126723071 ] } }
,
{ "type": "Feature", "id": 22, "properties": { "ID_0": 163, "ISO": "NGA", "NAME_0": "Nigeria", "ID_1": 23, "NAME_1": "Kogi", "TYPE_1": "State", "ENGTYPE_1": "State", "NL_NAME_1": "", "VARNAME_1": "" }, "geometry": { "type": "Point", "coordinates": [ 6.696041999377771, 7.716356482692041 ] } }
,
{ "type": "Feature", "id": 23, "properties": { "ID_0": 163, "ISO": "NGA", "NAME_0": "Nigeria", "ID_1": 24, "NAME_1": "Kwara", "TYPE_1": "State", "ENGTYPE_1": "State", "NL_NAME_1": "", "VARNAME_1": "" }, "geometry": { "type": "Point", "coordinates": [ 4.803038163083488, 8.686595830386338 ] } }
,
{ "type": "Feature", "id": 24, "properties": { "ID_0": 163, "ISO": "NGA", "NAME_0": "Nigeria", "ID_1": 25, "NAME_1": "Lagos", "TYPE_1": "State", "ENGTYPE_1": "State", "NL_NAME_1": "", "VARNAME_1": "" }, "geometry": { "type": "Point", "coordinates": [ 3.564947175724228, 6.527058221052489 ] } }
,
{ "type": "Feature", "id": 25, "properties": { "ID_0": 163, "ISO": "NGA", "NAME_0": "Nigeria", "ID_1": 26, "NAME_1": "Nassarawa", "TYPE_1": "State", "ENGTYPE_1": "State", "NL_NAME_1": "", "VARNAME_1": "" }, "geometry": { "type": "Point", "coordinates": [ 8.187252579136592, 8.498860987551296 ] } }
,
{ "type": "Feature", "id": 26, "properties": { "ID_0": 163, "ISO": "NGA", "NAME_0": "Nigeria", "ID_1": 27, "NAME_1": "Niger", "TYPE_1": "State", "ENGTYPE_1": "State", "NL_NAME_1": "", "VARNAME_1": "" }, "geometry": { "type": "Point", "coordinates": [ 5.601163648172951, 9.935978637389852 ] } }
,
{ "type": "Feature", "id": 27, "properties": { "ID_0": 163, "ISO": "NGA", "NAME_0": "Nigeria", "ID_1": 28, "NAME_1": "Ogun", "TYPE_1": "State", "ENGTYPE_1": "State", "NL_NAME_1": "", "VARNAME_1": "" }, "geometry": { "type": "Point", "coordinates": [ 3.467048430007266, 7.001702311684507 ] } }
,
{ "type": "Feature", "id": 28, "properties": { "ID_0": 163, "ISO": "NGA", "NAME_0": "Nigeria", "ID_1": 29, "NAME_1": "Ondo", "TYPE_1": "State", "ENGTYPE_1": "State", "NL_NAME_1": "", "VARNAME_1": "" }, "geometry": { "type": "Point", "coordinates": [ 4.941763229729604, 6.93562656700502 ] } }
,
{ "type": "Feature", "id": 29, "properties": { "ID_0": 163, "ISO": "NGA", "NAME_0": "Nigeria", "ID_1": 30, "NAME_1": "Osun", "TYPE_1": "State", "ENGTYPE_1": "State", "NL_NAME_1": "", "VARNAME_1": "" }, "geometry": { "type": "Point", "coordinates": [ 4.536133449282456, 7.534717061214932 ] } }
,
{ "type": "Feature", "id": 30, "properties": { "ID_0": 163, "ISO": "NGA", "NAME_0": "Nigeria", "ID_1": 31, "NAME_1": "Oyo", "TYPE_1": "State", "ENGTYPE_1": "State", "NL_NAME_1": "", "VARNAME_1": "" }, "geometry": { "type": "Point", "coordinates": [ 3.61884573943361, 8.14366402312511 ] } }
,
{ "type": "Feature", "id": 31, "properties": { "ID_0": 163, "ISO": "NGA", "NAME_0": "Nigeria", "ID_1": 32, "NAME_1": "Plateau", "TYPE_1": "State", "ENGTYPE_1": "State", "NL_NAME_1": "", "VARNAME_1": "" }, "geometry": { "type": "Point", "coordinates": [ 9.547155074357812, 9.209895318549851 ] } }
,
{ "type": "Feature", "id": 32, "properties": { "ID_0": 163, "ISO": "NGA", "NAME_0": "Nigeria", "ID_1": 33, "NAME_1": "Rivers", "TYPE_1": "State", "ENGTYPE_1": "State", "NL_NAME_1": "", "VARNAME_1": "" }, "geometry": { "type": "Point", "coordinates": [ 6.925185324046244, 4.860419854124634 ] } }
,
{ "type": "Feature", "id": 33, "properties": { "ID_0": 163, "ISO": "NGA", "NAME_0": "Nigeria", "ID_1": 34, "NAME_1": "Sokoto", "TYPE_1": "State", "ENGTYPE_1": "State", "NL_NAME_1": "", "VARNAME_1": "" }, "geometry": { "type": "Point", "coordinates": [ 5.317572021275622, 13.034913346571445 ] } }
,
{ "type": "Feature", "id": 34, "properties": { "ID_0": 163, "ISO": "NGA", "NAME_0": "Nigeria", "ID_1": 35, "NAME_1": "Taraba", "TYPE_1": "State", "ENGTYPE_1": "State", "NL_NAME_1": "", "VARNAME_1": "" }, "geometry": { "type": "Point", "coordinates": [ 10.829578328257544, 8.033708539573109 ] } }
,
{ "type": "Feature", "id": 35, "properties": { "ID_0": 163, "ISO": "NGA", "NAME_0": "Nigeria", "ID_1": 36, "NAME_1": "Water body", "TYPE_1": "Water body", "ENGTYPE_1": "Water body", "NL_NAME_1": "", "VARNAME_1": "" }, "geometry": { "type": "Point", "coordinates": [ 13.750305431678969, 13.309099582985942 ] } }
,
{ "type": "Feature", "id": 36, "properties": { "ID_0": 163, "ISO": "NGA", "NAME_0": "Nigeria", "ID_1": 37, "NAME_1": "Yobe", "TYPE_1": "State", "ENGTYPE_1": "State", "NL_NAME_1": "", "VARNAME_1": "" }, "geometry": { "type": "Point", "coordinates": [ 11.443025552464059, 12.297321744841252 ] } }
,
{ "type": "Feature", "id": 37, "properties": { "ID_0": 163, "ISO": "NGA", "NAME_0": "Nigeria", "ID_1": 38, "NAME_1": "Zamfara", "TYPE_1": "State", "ENGTYPE_1": "State", "NL_NAME_1": "", "VARNAME_1": "" }, "geometry": { "type": "Point", "coordinates": [ 6.261731966259784, 12.088472335216828 ] } }

]
}
